{
  "type": "FeatureCollection",
  "crs": {
    "type": "name",
    "properties": {
      "name": "urn:ogc:def:crs:OGC:1.3:CRS84"
    }
  },
  "features": [
    {
      "type": "Feature",
      "properties": {
        "Name": "National University of Singapore"
      },
      "geometry": {
        "type": "Point",
        "coordinates": [
          103.776667,
          1.295556,
          0
        ]
      }
    },
    {
      "type": "Feature",
      "properties": {
        "Name": "Nanyang Technological University"
      },
      "geometry": {
        "type": "Point",
        "coordinates": [
          103.681389,
          1.344722,
          0
        ]
      }
    },
    {
      "type": "Feature",
      "properties": {
        "Name": "Singapore Management University"
      },
      "geometry": {
        "type": "Point",
        "coordinates": [
          103.849722,
          1.296667,
          0
        ]
      }
    },
    {
      "type": "Feature",
      "properties": {
        "Name": "Singapore University of Technology and Design"
      },
      "geometry": {
        "type": "Point",
        "coordinates": [
          103.963757,
          1.341313,
          0
        ]
      }
    },
    {
      "type": "Feature",
      "properties": {
        "Name": "Singapore Institute of Technology"
      },
      "geometry": {
        "type": "Point",
        "coordinates": [
          103.849444,
          1.290278,
          0
        ]
      }
    },
    {
      "type": "Feature",
      "properties": {
        "Name": "Singapore University of Social Sciences"
      },
      "geometry": {
        "type": "Point",
        "coordinates": [
          103.776389,
          1.329167,
          0
        ]
      }
    },
    {
      "type": "Feature",
      "properties": {
        "Name": "Singapore Polytechnic"
      },
      "geometry": {
        "type": "Point",
        "coordinates": [
          103.7775,
          1.3098,
          0
        ]
      }
    },
    {
      "type": "Feature",
      "properties": {
        "Name": "Ngee Ann Polytechnic"
      },
      "geometry": {
        "type": "Point",
        "coordinates": [
          103.7744,
          1.3321,
          0
        ]
      }
    },
    {
      "type": "Feature",
      "properties": {
        "Name": "Nanyang Polytechnic"
      },
      "geometry": {
        "type": "Point",
        "coordinates": [
          103.8489,
          1.38,
          0
        ]
      }
    },
    {
      "type": "Feature",
      "properties": {
        "Name": "Temasek Polytechnic"
      },
      "geometry": {
        "type": "Point",
        "coordinates": [
          103.9325766,
          1.3467526,
          0
        ]
      }
    },
    {
      "type": "Feature",
      "properties": {
        "Name": "Republic Polytechnic"
      },
      "geometry": {
        "type": "Point",
        "coordinates": [
          103.785083,
          1.444722,
          0
        ]
      }
    },
    {
      "type": "Feature",
      "properties": {
        "Name": "Nanyang Academy of Fine Arts"
      },
      "geometry": {
        "type": "Point",
        "coordinates": [
          103.851573,
          1.300229,
          0
        ]
      }
    },
    {
      "type": "Feature",
      "properties": {
        "Name": "LASALLE College of the Arts"
      },
      "geometry": {
        "type": "Point",
        "coordinates": [
          103.851852,
          1.303068,
          0
        ]
      }
    }
  ]
}