{
  "type": "FeatureCollection",
  "crs": {
    "type": "name",
    "properties": {
      "name": "urn:ogc:def:crs:OGC:1.3:CRS84"
    }
  },
  "features": [
    {
      "type": "Feature",
      "properties": {
        "Name": "National University of Singapore",
        "Address": "21 Lower Kent Ridge Rd",
        "Photo": "https://i.postimg.cc/W3hNsgDG/nus.jpg"
      },
      "geometry": {
        "type": "Point",
        "coordinates": [
          103.776667,
          1.295556,
          0
        ]
      }
    },
    {
      "type": "Feature",
      "properties": {
        "Name": "Nanyang Technological University",
        "Address": "50 Nanyang Ave",
        "Photo": "https://i.postimg.cc/6pJNFFLf/ntu.jpg"
      },
      "geometry": {
        "type": "Point",
        "coordinates": [
          103.681389,
          1.344722,
          0
        ]
      }
    },
    {
      "type": "Feature",
      "properties": {
        "Name": "Singapore Management University",
        "Address": "81 Victoria St",
        "Photo": "https://i.postimg.cc/HkcVtGW0/smu.png"
      },
      "geometry": {
        "type": "Point",
        "coordinates": [
          103.849722,
          1.296667,
          0
        ]
      }
    },
    {
      "type": "Feature",
      "properties": {
        "Name": "Singapore University of Technology and Design",
        "Address": "8 Somapah Rd",
        "Photo": "https://i.postimg.cc/5N9zLkFp/sutd.jpg"
      },
      "geometry": {
        "type": "Point",
        "coordinates": [
          103.963757,
          1.341313,
          0
        ]
      }
    },
    {
      "type": "Feature",
      "properties": {
        "Name": "Singapore Institute of Technology",
        "Address": "10 Dover Dr",
        "Photo": "https://i.postimg.cc/wBRL3ysp/sit.png"
      },
      "geometry": {
        "type": "Point",
        "coordinates": [
          103.849444,
          1.290278,
          0
        ]
      }
    },
    {
      "type": "Feature",
      "properties": {
        "Name": "Singapore University of Social Sciences",
        "Address": "463 Clementi Rd",
        "Photo": "https://i.postimg.cc/TYv7xxF1/suss.png"
      },
      "geometry": {
        "type": "Point",
        "coordinates": [
          103.776389,
          1.329167,
          0
        ]
      }
    },
    {
      "type": "Feature",
      "properties": {
        "Name": "Singapore Polytechnic",
        "Address": "500 Dover Rd",
        "Photo": "https://i.postimg.cc/05MFxcNW/sp.png"
      },
      "geometry": {
        "type": "Point",
        "coordinates": [
          103.7775,
          1.3098,
          0
        ]
      }
    },
    {
      "type": "Feature",
      "properties": {
        "Name": "Ngee Ann Polytechnic",
        "Address": "535 Clementi Rd",
        "Photo": "https://i.postimg.cc/MTt4TFQN/napoly.png"
      },
      "geometry": {
        "type": "Point",
        "coordinates": [
          103.7744,
          1.3321,
          0
        ]
      }
    },
    {
      "type": "Feature",
      "properties": {
        "Name": "Nanyang Polytechnic",
        "Address": "180 Ang Mo Kio Ave 8",
        "Photo": "https://i.postimg.cc/fLK4db6H/nyp.jpg"
      },
      "geometry": {
        "type": "Point",
        "coordinates": [
          103.8489,
          1.38,
          0
        ]
      }
    },
    {
      "type": "Feature",
      "properties": {
        "Name": "Temasek Polytechnic",
        "Address": "21 Tampines Ave 1",
        "Photo": "https://i.postimg.cc/sX9zJmZ4/temasek.jpg"
      },
      "geometry": {
        "type": "Point",
        "coordinates": [
          103.9325766,
          1.3467526,
          0
        ]
      }
    },
    {
      "type": "Feature",
      "properties": {
        "Name": "Republic Polytechnic",
        "Address": "9 Woodlands Ave 9",
        "Photo": "https://i.postimg.cc/3RpNQ20k/Republic-Polytechnic-Logo.jpg"
      },
      "geometry": {
        "type": "Point",
        "coordinates": [
          103.785083,
          1.444722,
          0
        ]
      }
    },
    {
      "type": "Feature",
      "properties": {
        "Name": "Nanyang Academy of Fine Arts",
        "Address": "80 Bencoolen St",
        "Photo": "https://i.postimg.cc/fbRYsqMJ/nafa.jpg"
      },
      "geometry": {
        "type": "Point",
        "coordinates": [
          103.851573,
          1.300229,
          0
        ]
      }
    },
    {
      "type": "Feature",
      "properties": {
        "Name": "LASALLE College of the Arts",
        "Address": "1 McNally St",
        "Photo": "https://i.postimg.cc/qM631dgB/lasalle.png"
      },
      "geometry": {
        "type": "Point",
        "coordinates": [
          103.851852,
          1.303068,
          0
        ]
      }
    }
  ]
}